,City,Lat,Lng,Max Temp,Humidity,Cloudiness,Wind Speed,Country,Date
0,east london,-33.0153,27.9116,53.85,63,0,7.34,ZA,1659314593
1,cidreira,-30.1811,-50.2056,58.66,89,3,9.53,BR,1659314615
2,vaini,-21.2,-175.2,80.76,89,75,6.91,TO,1659314616
3,jamestown,42.097,-79.2353,74.84,72,20,4.61,US,1659314616
4,dingle,10.9995,122.6711,82.58,75,100,1.14,PH,1659314616
5,hobart,-42.8794,147.3294,51.26,70,75,18.41,AU,1659314424
6,yellowknife,62.456,-114.3525,68.52,40,40,9.22,CA,1659314616
7,adrar,20.5022,-10.0711,92.59,34,15,12.44,MR,1659314617
8,klaksvik,62.2266,-6.589,50.58,83,86,13.78,FO,1659314617
9,upernavik,72.7868,-56.1549,48.76,68,100,0.45,GL,1659314439
10,port alfred,-33.5906,26.891,52.2,73,0,9.66,ZA,1659314617
11,bathsheba,13.2167,-59.5167,83.01,90,40,19.57,BB,1659314617
12,hami,42.8,93.45,86.4,25,100,6.78,CN,1659314486
13,rikitea,-23.1203,-134.9692,72.46,73,100,23.82,PF,1659314618
14,qaanaaq,77.484,-69.3632,44.74,64,100,2.48,GL,1659314618
15,puerto ayora,-0.7393,-90.3518,71.55,91,77,5.01,EC,1659314618
16,port lincoln,-34.7333,135.8667,58.69,64,2,15.55,AU,1659314618
17,butaritari,3.0707,172.7902,81.48,78,73,13.11,KI,1659314619
18,pisco,-13.7,-76.2167,60.85,82,100,9.22,PE,1659314619
19,mataura,-46.1927,168.8643,50.49,73,100,9.24,NZ,1659314619
20,husavik,66.0449,-17.3389,41.88,93,100,9.71,IS,1659314619
21,comodoro rivadavia,-45.8667,-67.5,40.86,48,0,4.61,AR,1659314475
22,vestmannaeyjar,63.4427,-20.2734,49.23,75,66,18.34,IS,1659314620
23,meulaboh,4.1363,96.1285,77.68,86,100,4.34,ID,1659314755
24,sinegorye,62.0788,150.477,64.31,60,70,8.95,RU,1659314756
25,port macquarie,-31.4333,152.9167,61.9,59,100,8.14,AU,1659314756
26,raduzhnyy,62.0961,77.475,53.37,65,0,11.3,RU,1659314756
27,fort collins,40.5853,-105.0844,87.96,39,0,10.36,US,1659314535
28,tuktoyaktuk,69.4541,-133.0374,64.4,48,40,3.44,CA,1659314552
29,kamloops,50.6665,-120.3192,101.57,22,20,8.05,CA,1659314696
30,novopokrovka,49.8425,36.5477,62.46,62,3,8.68,UA,1659314756
31,college,64.8569,-147.8028,68.2,75,75,4.61,US,1659314757
32,carnarvon,-24.8667,113.6333,69.42,75,100,15.75,AU,1659314757
33,ambilobe,-13.2,49.05,62.62,85,0,3.67,MG,1659314757
34,ushuaia,-54.8,-68.3,35.26,93,40,3.44,AR,1659314757
35,mount gambier,-37.8333,140.7667,53.49,79,5,13.65,AU,1659314566
36,grindavik,63.8424,-22.4338,49.95,81,75,13.8,IS,1659314758
37,gat,31.61,34.7642,75.88,74,0,2.42,IL,1659314758
38,along,28.1667,94.7667,74.7,99,100,0.72,IN,1659314758
39,albany,42.6001,-73.9662,76.46,67,100,2.48,US,1659314672
40,port elizabeth,-33.918,25.5701,47.32,86,0,5.75,ZA,1659314759
41,broome,42.2506,-75.833,73.54,79,95,3.04,US,1659314759
42,corn island,12.1694,-83.0418,82.04,81,100,17.11,NI,1659314759
43,busselton,-33.65,115.3333,60.01,88,100,23.35,AU,1659314759
44,mokhsogollokh,61.4681,128.9203,71.98,73,100,4.12,RU,1659314760
45,flinders,-34.5833,150.8552,64.38,66,2,5.99,AU,1659314760
46,torbay,47.6666,-52.7314,68.77,77,20,17.27,CA,1659314568
47,tasiilaq,65.6145,-37.6368,42.96,50,23,4.99,GL,1659314760
48,cape town,-33.9258,18.4232,55.38,76,0,7.0,ZA,1659314760
49,arraial do cabo,-22.9661,-42.0278,68.34,69,0,10.04,BR,1659314648
50,beringovskiy,63.05,179.3167,50.22,62,100,4.88,RU,1659314761
51,waipawa,-41.4122,175.5153,50.23,61,0,4.92,NZ,1659314761
52,tura,25.5198,90.2201,73.8,99,100,5.75,IN,1659314761
53,bredasdorp,-34.5322,20.0403,41.77,83,0,3.56,ZA,1659314762
54,miguel alves,-4.1656,-42.8953,71.71,97,40,1.72,BR,1659314762
55,nikolskoye,59.7035,30.7861,58.8,84,100,4.32,RU,1659314762
56,uvinza,-5.1036,30.3911,69.91,67,62,3.11,TZ,1659314762
57,avarua,-21.2078,-159.775,77.05,73,20,14.97,CK,1659314763
58,riyadh,24.6877,46.7219,87.94,74,100,13.65,SA,1659314710
59,avera,33.194,-82.5271,87.31,39,25,6.22,US,1659314763
60,esperance,-33.8667,121.9,53.15,54,100,19.28,AU,1659314763
61,punta arenas,-53.15,-70.9167,42.91,75,75,8.05,CL,1659314763
62,khatanga,71.9667,102.5,48.16,64,60,10.71,RU,1659314764
63,norton shores,43.1689,-86.2639,76.98,65,0,6.64,US,1659314764
64,enterprise,36.0252,-115.2419,85.64,55,100,8.05,US,1659314764
65,new norfolk,-42.7826,147.0587,50.92,82,99,4.0,AU,1659314513
66,leningradskiy,69.3833,178.4167,51.37,64,49,8.19,RU,1659314704
67,lumby,50.2498,-118.969,99.19,23,0,1.14,CA,1659314764
68,barrow,71.2906,-156.7887,35.62,87,75,9.22,US,1659314765
69,cherskiy,68.75,161.3,71.22,35,87,18.52,RU,1659314765
70,hermanus,-34.4187,19.2345,38.8,73,0,6.58,ZA,1659314765
71,hithadhoo,-0.6,73.0833,80.73,74,100,16.35,MV,1659314714
72,khandyga,62.6667,135.6,80.89,48,100,4.76,RU,1659314765
73,georgetown,5.4112,100.3354,80.89,87,40,4.61,MY,1659314574
74,nouadhibou,20.931,-17.0347,75.18,78,0,9.22,MR,1659314766
75,chokurdakh,70.6333,147.9167,67.87,61,100,10.47,RU,1659314766
76,saint-philippe,-21.3585,55.7679,67.59,81,44,13.56,RE,1659314766
77,lebu,-37.6167,-73.65,46.62,83,100,4.27,CL,1659314766
78,tautira,-17.7333,-149.15,76.87,69,90,24.23,PF,1659314767
79,kieta,-6.2167,155.6333,85.41,68,98,6.04,PG,1659314767
80,mar del plata,-38.0023,-57.5575,55.09,87,0,5.01,AR,1659314497
81,vaitape,-16.5167,-151.75,78.62,71,15,24.52,PF,1659314767
82,camacha,33.0833,-16.3333,67.42,78,40,12.66,PT,1659314768
83,armidale,-30.5167,151.65,48.29,82,100,11.01,AU,1659314768
84,nanortalik,60.1432,-45.2371,46.54,92,71,6.53,GL,1659314768
85,bluff,-46.6,168.3333,50.81,76,100,17.27,NZ,1659314768
86,mahebourg,-20.4081,57.7,68.29,83,40,9.22,MU,1659314769
87,chunskiy,56.0815,99.6342,67.37,86,72,4.65,RU,1659314769
88,corovode,40.5042,20.2272,69.33,71,0,5.57,AL,1659314769
89,alekseyevsk,57.8406,108.3492,64.76,91,95,4.23,RU,1659314769
90,namibe,-15.1961,12.1522,56.93,80,4,10.58,AO,1659314770
91,balykshi,47.0667,51.8667,73.4,46,0,6.71,KZ,1659314770
92,mansa,29.9833,75.3833,76.93,95,100,4.14,IN,1659314770
93,atuona,-9.8,-139.0333,77.05,73,14,12.68,PF,1659314770
94,kapuskasing,49.4169,-82.4331,75.2,69,100,14.97,CA,1659314665
95,hilo,19.7297,-155.09,86.29,67,0,13.8,US,1659314642
96,turukhansk,65.8167,87.9833,50.65,70,98,12.53,RU,1659314771
97,wonthaggi,-38.6044,145.5913,51.82,68,20,20.22,AU,1659314771
98,mazyr,52.0495,29.2456,60.01,82,63,7.34,BY,1659314771
99,conde,-7.2597,-34.9075,74.66,94,40,4.61,BR,1659314772
100,puerto rondon,6.2805,-71.1,72.88,96,86,4.03,CO,1659314772
101,banda aceh,5.5577,95.3222,81.16,76,100,9.6,ID,1659314772
102,mount isa,-20.7333,139.5,76.77,23,0,6.91,AU,1659314772
103,kanata,45.3159,-75.8985,76.91,71,75,11.5,CA,1659314719
104,kropotkin,45.4375,40.5756,73.26,52,0,9.1,RU,1659314773
105,acajutla,13.5928,-89.8275,80.58,83,95,5.64,SV,1659314773
106,lavrentiya,65.5833,-171.0,48.81,69,95,4.76,RU,1659314773
107,namuac,18.6109,121.1657,85.21,71,100,1.92,PH,1659314773
108,belyy yar,53.6039,91.3903,66.09,77,0,2.24,RU,1659314774
109,ambulu,-8.345,113.6058,77.61,74,9,1.72,ID,1659314774
110,kolpashevo,58.3131,82.9089,53.89,71,100,11.79,RU,1659314774
111,amalapuram,16.5833,82.0167,80.49,88,100,1.9,IN,1659314705
112,san patricio,28.017,-97.5169,90.54,60,100,14.14,US,1659314684
113,dunedin,-45.8742,170.5036,51.8,60,100,1.99,NZ,1659314693
114,kodiak,57.79,-152.4072,63.91,68,100,4.61,US,1659314774
115,kalmunai,7.4167,81.8167,78.66,84,100,4.85,LK,1659314775
116,talavera de la reina,39.9635,-4.8308,83.01,26,7,6.4,ES,1659314775
117,euclides da cunha,-10.5075,-39.0158,65.01,97,5,7.76,BR,1659314775
118,ribeira grande,38.5167,-28.7,73.76,76,19,5.32,PT,1659314775
119,zhigansk,66.7697,123.3711,70.47,65,48,3.33,RU,1659314776
120,gainesville,29.6516,-82.3248,89.1,56,0,0.0,US,1659314669
121,stephenville,32.2207,-98.2023,99.39,24,0,9.22,US,1659314776
122,yangjiang,21.85,111.9667,85.59,71,13,0.87,CN,1659314776
123,makubetsu,45.3714,141.8211,64.11,82,75,21.85,JP,1659314777
124,guozhen,34.3659,107.359,80.94,70,95,4.68,CN,1659314777
125,cuamba,-14.8031,36.5372,61.81,70,0,2.1,MZ,1659314777
126,soyo,-6.1349,12.3689,68.81,93,10,8.95,AO,1659314777
127,sioux lookout,50.1001,-91.917,64.47,94,100,10.36,CA,1659314778
128,clyde river,70.4692,-68.5914,35.83,100,100,4.61,CA,1659314479
129,agadez,19.75,10.25,86.68,38,8,12.37,NE,1659314778
130,santa cruz,-17.8,-63.1667,72.86,68,40,5.75,BO,1659314703
131,tessalit,20.1986,1.0114,91.76,20,60,2.75,ML,1659314622
132,norman wells,65.282,-126.8329,73.44,46,20,10.36,CA,1659314581
133,lompoc,34.6391,-120.4579,77.85,71,0,14.97,US,1659314644
134,surab,28.4914,66.2585,70.81,64,1,5.32,PK,1659314778
135,touros,-5.1989,-35.4608,76.51,84,91,12.97,BR,1659314779
136,bethel,41.3712,-73.414,77.83,65,100,5.23,US,1659314779
137,kruisfontein,-34.0033,24.7314,45.07,78,0,6.24,ZA,1659314779
138,margate,51.3813,1.3862,65.3,92,100,1.99,GB,1659314779
139,kazerun,29.6195,51.6541,83.35,63,100,4.21,IR,1659314780
140,nuuk,64.1835,-51.7216,47.88,76,90,11.01,GL,1659314781
141,iralaya,15.0,-83.2333,80.17,86,97,14.23,HN,1659314781
142,sonoita,31.85,-112.8333,93.36,38,27,10.22,MX,1659314777
143,dickinson,29.4608,-95.0513,91.13,69,29,5.99,US,1659314782
144,kidal,18.4411,1.4078,93.0,21,24,5.17,ML,1659314782
145,sampit,-2.5333,112.95,75.76,88,100,2.35,ID,1659314782
146,port hardy,50.6996,-127.4199,69.98,73,75,11.5,CA,1659314753
147,anadyr,64.75,177.4833,61.3,48,20,8.95,RU,1659314782
148,simbahan,6.3032,120.5836,80.85,78,100,6.69,PH,1659314783
149,amarante do maranhao,-5.5667,-46.7422,74.08,79,92,4.25,BR,1659314783
150,port blair,11.6667,92.75,78.84,94,40,2.3,IN,1659314673
151,carhuamayo,-10.9167,-76.0333,35.64,91,18,2.77,PE,1659314783
152,sao filipe,14.8961,-24.4956,75.49,75,11,6.29,CV,1659314784
153,kjollefjord,70.9457,27.3465,57.25,94,100,1.14,NO,1659314784
154,nemuro,43.3236,145.575,59.14,86,100,8.77,JP,1659314784
155,pangody,65.85,74.4859,51.13,69,3,11.97,RU,1659314784
156,saint anthony,45.0205,-93.218,84.13,66,20,16.11,US,1659314785
157,dalvik,65.9702,-18.5286,48.13,98,100,7.4,IS,1659314785
158,sao gabriel da cachoeira,-0.1303,-67.0892,76.51,86,86,1.43,BR,1659314785
159,bonavista,48.6499,-53.1147,63.23,80,88,5.79,CA,1659314785
160,terrace,54.5163,-128.6035,78.71,53,75,5.75,CA,1659314786
161,makushino,55.2103,67.2442,60.87,96,97,5.03,RU,1659314786
162,huarmey,-10.0681,-78.1522,62.65,84,10,9.86,PE,1659314786
163,taksimo,56.3444,114.8794,65.26,79,100,1.74,RU,1659314652
164,pevek,69.7008,170.3133,50.77,59,0,11.43,RU,1659314786
165,kaitangata,-46.2817,169.8464,47.48,64,100,7.85,NZ,1659314787
166,umm kaddadah,13.6017,26.6876,76.96,66,100,16.33,SD,1659314787
167,swan hill,-35.3378,143.5544,53.82,65,0,11.07,AU,1659314787
168,morant bay,17.8815,-76.4093,85.62,79,28,8.9,JM,1659314787
169,yulara,-25.2406,130.9889,59.97,31,57,13.73,AU,1659314788
170,manta,-0.95,-80.7333,71.38,83,75,12.66,EC,1659314788
171,ancud,-41.8697,-73.8203,42.22,84,100,1.23,CL,1659314788
172,kapaa,22.0752,-159.319,87.78,63,40,17.27,US,1659314788
173,tortoli,39.9256,9.6572,78.62,53,0,8.05,IT,1659314623
174,vostok,46.4856,135.8833,77.16,66,100,3.76,RU,1659314789
175,slave lake,55.2834,-114.769,73.38,60,75,8.05,CA,1659314745
176,sangmelima,2.9333,11.9833,65.35,100,71,2.73,CM,1659314789
177,puerto escondido,15.85,-97.0667,81.86,80,61,4.05,MX,1659314781
178,tezu,27.9167,96.1667,76.46,96,100,1.39,IN,1659314789
179,monterrey,25.6667,-100.3167,89.56,53,39,3.0,MX,1659314657
180,osorno,-40.5667,-73.15,43.11,87,75,0.0,CL,1659314789
181,buldana,20.5333,76.1833,71.74,91,100,8.23,IN,1659314790
182,preobrazheniye,42.9019,133.9064,68.63,99,100,12.19,RU,1659314790
183,asyut,27.181,31.1837,84.38,41,17,8.77,EG,1659314615
184,itoman,26.1247,127.6694,78.82,94,75,17.27,JP,1659314790
185,paragominas,-2.9667,-47.4833,73.71,93,100,3.04,BR,1659314791
186,plettenberg bay,-34.0527,23.3716,48.83,71,0,4.83,ZA,1659314791
187,ciudad guayana,8.3533,-62.6528,79.52,89,99,6.69,VE,1659314791
188,kristinehamn,59.3098,14.1081,61.36,78,100,6.76,SE,1659314791
189,bilma,18.6853,12.9164,88.34,41,21,6.93,NE,1659314792
190,severo-kurilsk,50.6789,156.125,54.7,81,73,10.47,RU,1659314792
191,dikson,73.5069,80.5464,41.25,94,100,9.55,RU,1659314792
192,palmer,42.1584,-72.3287,77.61,75,75,0.0,US,1659314771
193,galanesti,47.9167,25.8,64.42,96,100,9.04,RO,1659314792
194,calvinia,-31.4707,19.776,39.42,61,0,7.94,ZA,1659314793
195,sibolga,1.7427,98.7792,78.58,83,100,1.99,ID,1659314793
196,sitka,57.0531,-135.33,57.09,94,100,9.22,US,1659314793
197,biak,-0.9131,122.8766,77.99,84,100,3.47,ID,1659314544
198,kristiansund,63.1115,7.732,52.45,87,100,3.44,NO,1659314793
199,walvis bay,-22.9575,14.5053,55.09,76,14,6.91,NA,1659314794
200,tiksi,71.6872,128.8694,40.64,94,100,17.74,RU,1659314794
201,ramgarh,23.6333,85.5167,80.65,75,92,2.37,IN,1659314794
202,chuy,-33.6971,-53.4616,47.82,81,91,3.53,UY,1659314506
203,dabakala,8.3667,-4.4333,70.63,97,100,6.98,CI,1659314795
204,guerrero negro,27.9769,-114.0611,79.03,55,18,14.03,MX,1659314795
205,granada,37.25,-3.25,74.3,32,0,5.17,ES,1659314579
206,nome,64.5011,-165.4064,59.16,77,100,10.36,US,1659314692
207,nikolayevskaya,47.6139,41.5023,73.09,57,0,11.54,RU,1659314795
208,concordia,-31.393,-58.0209,57.78,78,0,3.0,AR,1659314795
209,kamenka,51.3223,42.7678,60.8,70,100,8.84,RU,1659314796
210,lata,40.1629,-8.3327,70.09,56,0,3.44,PT,1659314796
211,katerini,40.2719,22.5025,81.91,53,97,3.33,GR,1659314796
212,high level,58.5169,-117.136,71.71,46,75,3.44,CA,1659314796
213,wawa,9.9022,4.4192,72.75,89,20,7.36,NG,1659314797
214,provideniya,64.3833,-173.3,50.36,76,0,7.0,RU,1659314797
215,zyryanka,65.75,150.85,76.66,41,100,20.33,RU,1659314797
216,puri,19.8,85.85,82.92,76,100,12.57,IN,1659314797
217,te anau,-45.4167,167.7167,45.09,91,100,7.92,NZ,1659314798
218,roma,43.2128,-75.4557,73.38,81,100,2.8,US,1659314798
219,acapulco,16.8634,-99.8901,85.82,70,75,14.97,MX,1659314674
220,cayenne,4.9333,-52.3333,83.08,1,94,0.0,GF,1659314798
221,machali,-34.1833,-70.6667,51.44,70,99,1.43,CL,1659314798
222,hamilton,39.1834,-84.5333,75.76,81,0,6.91,US,1659314725
223,san vicente,-26.6167,-54.1333,52.77,62,0,1.72,AR,1659314799
224,sistranda,63.7256,8.834,51.76,79,100,6.98,NO,1659314799
225,mlati,-7.2154,112.2093,78.24,74,16,4.34,ID,1659314799
226,tuatapere,-46.1333,167.6833,48.76,81,100,8.59,NZ,1659314799
227,airai,-8.9266,125.4092,69.22,63,60,2.84,TL,1659314800
228,curup,-3.4667,102.5333,72.82,87,100,2.73,ID,1659314800
229,castro,-24.7911,-50.0119,52.38,78,0,2.42,BR,1659314800
230,lubango,-14.9172,13.4925,49.37,69,5,4.29,AO,1659314800
231,nishihara,26.1842,127.7558,78.08,94,75,17.27,JP,1659314801
232,campina verde,-19.5356,-49.4864,71.04,36,0,2.91,BR,1659314801
233,bengkulu,-3.8004,102.2655,77.85,82,83,3.04,ID,1659314801
234,gadarwara,22.9167,78.7833,77.11,88,100,6.06,IN,1659314801
235,turkistan,43.0,68.0,74.95,42,0,7.4,KZ,1659314802
236,dwarka,22.2394,68.9678,80.55,81,100,20.6,IN,1659314802
237,ojinaga,29.5667,-104.4167,99.57,22,0,10.36,MX,1659314802
238,bilibino,68.0546,166.4372,65.46,39,46,6.11,RU,1659314802
239,saskylakh,71.9167,114.0833,45.64,77,100,10.36,RU,1659314803
240,saldanha,-33.0117,17.9442,41.05,79,0,13.35,ZA,1659314803
241,ponta delgada,37.7333,-25.6667,70.52,88,75,3.44,PT,1659314803
242,winsum,53.33,6.5208,64.38,93,100,14.58,NL,1659314803
243,souillac,-20.5167,57.5167,68.38,83,40,9.22,MU,1659314804
244,puerto colombia,10.9878,-74.9547,84.29,84,98,23.58,CO,1659314699
245,shingu,33.7333,135.9833,88.84,64,80,7.83,JP,1659314804
246,narasannapeta,18.4167,84.05,82.13,83,100,4.76,IN,1659314804
247,svetlaya,46.5389,138.3297,63.5,94,100,1.97,RU,1659314805
248,zarand,30.8127,56.564,74.93,28,0,1.92,IR,1659314805
249,vizinga,61.0749,50.1031,56.59,98,8,3.06,RU,1659314805
250,dusti,37.3481,68.664,77.2,31,10,2.71,TJ,1659314805
251,nelson bay,-32.7167,152.15,60.01,84,100,8.01,AU,1659314806
252,san nicolas,18.1725,120.5953,84.11,74,75,3.44,PH,1659314806
253,vila velha,-20.3297,-40.2925,71.55,84,75,3.44,BR,1659314806
254,moose factory,51.2585,-80.6094,57.2,94,100,10.36,CA,1659314806
255,victoria,22.2855,114.1577,91.26,76,97,1.99,HK,1659314784
256,padang,-0.9492,100.3543,77.05,82,100,3.02,ID,1659314711
257,san quintin,30.4833,-115.95,74.14,65,7,10.16,MX,1659314655
258,sydney,-33.8679,151.2073,64.76,64,0,17.27,AU,1659314578
259,takoradi,4.8845,-1.7554,73.53,84,95,12.19,GH,1659314807
260,khor,47.8861,134.9464,80.35,80,100,5.44,RU,1659314807
261,zhangye,38.9342,100.4517,75.7,40,85,5.55,CN,1659314807
262,coihaique,-45.5752,-72.0662,37.35,70,100,5.75,CL,1659314807
263,novobirilyussy,56.9514,90.6661,64.09,96,93,5.12,RU,1659314808
264,olhao,37.0286,-7.8411,80.29,59,0,2.3,PT,1659314808
265,nartan,43.5108,43.6994,66.74,72,0,4.47,RU,1659314808
266,marsh harbour,26.5412,-77.0636,83.19,73,100,11.88,BS,1659314808
267,khingansk,49.1167,131.1833,70.07,93,58,6.11,RU,1659314809
268,colon,9.3592,-79.9014,82.36,89,94,3.0,PA,1659314809
269,beyneu,45.3167,55.2,79.63,41,6,8.59,KZ,1659314809
270,maumere,-8.6199,122.2111,81.01,67,29,2.57,ID,1659314809
271,saint-georges,12.0564,-61.7485,80.28,89,20,23.02,GD,1659314810
272,deputatskiy,69.3,139.9,69.51,64,100,3.91,RU,1659314810
273,yuza,39.0,139.9167,84.25,62,89,4.12,JP,1659314810
274,geraldton,-28.7667,114.6,64.81,59,75,23.02,AU,1659314653
275,cabo san lucas,22.8909,-109.9124,85.51,80,33,3.0,MX,1659314810
276,zheleznogorsk-ilimskiy,56.5768,104.1217,63.91,92,93,5.01,RU,1659314811
277,hofn,64.2539,-15.2082,50.94,61,76,14.67,IS,1659314811
278,mata,40.683,-7.4592,73.92,46,0,1.14,PT,1659314811
279,manado,1.487,124.8455,86.77,70,20,1.14,ID,1659314811
280,novikovo,51.1537,37.8879,59.16,64,67,7.49,RU,1659314812
281,asau,46.4333,26.4,60.28,94,6,5.35,RO,1659314742
282,narsaq,60.9167,-46.05,50.22,86,99,2.86,GL,1659314812
283,bunia,1.5667,30.25,62.11,98,86,3.11,CD,1659314812
284,waingapu,-9.6567,120.2641,80.69,69,48,9.53,ID,1659314812
285,saint-ambroise,48.5501,-71.3324,76.6,50,60,8.05,CA,1659314813
286,bida,9.0833,6.0167,72.91,94,100,5.93,NG,1659314813
287,cairns,-16.9167,145.7667,77.07,79,100,10.36,AU,1659314813
288,palmaner,13.2,78.75,74.08,83,100,1.97,IN,1659314813
289,jalu,29.0331,21.5482,82.02,48,0,15.23,LY,1659314814
290,sao fidelis,-21.6461,-41.7469,61.52,87,0,2.39,BR,1659314814
291,chake chake,-5.2459,39.7666,72.32,87,16,8.37,TZ,1659314814
292,fairbanks,64.8378,-147.7164,66.31,73,75,4.61,US,1659314815
293,zhoucheng,35.9122,116.3117,86.0,69,6,3.04,CN,1659314815
294,basco,20.4487,121.9702,85.51,75,100,14.23,PH,1659314815
295,rio gallegos,-51.6226,-69.2181,39.25,70,0,13.8,AR,1659314815
296,okha,53.5739,142.9478,63.88,70,4,18.05,RU,1659314815
297,aitape,-3.1374,142.3475,86.56,63,100,4.43,PG,1659314816
298,la ronge,55.1001,-105.2842,71.82,49,40,9.22,CA,1659314570
299,tshikapa,-6.4167,20.8,73.72,35,1,1.14,CD,1659314816
300,komsomolskiy,40.4272,71.7189,75.92,38,36,2.3,UZ,1659314816
301,amio,9.3571,122.9413,82.38,74,100,0.94,PH,1659314817
302,sarab,38.6066,44.9883,73.62,52,50,0.69,IR,1659314817
303,berdigestyakh,62.0989,126.6992,68.85,80,100,5.61,RU,1659314817
304,thompson,55.7435,-97.8558,57.36,94,75,3.44,CA,1659314704
305,strezhevoy,60.7333,77.5889,52.3,71,0,10.09,RU,1659314817
306,lillesand,58.2488,8.3778,59.04,94,0,3.44,NO,1659314818
307,mitsamiouli,-11.3847,43.2844,75.18,71,0,3.69,KM,1659314818
308,whitianga,-36.8333,175.7,57.6,57,8,6.73,NZ,1659314818
309,talnakh,69.4865,88.3972,47.21,56,2,19.77,RU,1659314818
310,northam,51.0333,-4.2167,59.25,96,66,2.66,GB,1659314819
311,ust-ishim,57.6935,71.1665,56.48,77,98,7.65,RU,1659314819
312,albacete,38.8333,-2.0,77.18,73,0,6.91,ES,1659314819
313,bealanana,-14.55,48.7333,51.76,98,54,3.38,MG,1659314819
314,paita,-5.0892,-81.1144,62.85,85,6,14.88,PE,1659314688
315,villa carlos paz,-31.4241,-64.4978,54.82,30,6,1.99,AR,1659314820
316,cockburn town,21.4612,-71.1419,82.02,85,0,19.86,TC,1659314820
317,montepuez,-13.1256,38.9997,60.76,87,0,3.96,MZ,1659314820
318,yanam,16.7333,82.2167,80.13,89,100,2.48,IN,1659314820
319,alyangula,-13.8483,136.4192,78.21,65,47,5.28,AU,1659314821
320,uinskoye,56.8817,56.5813,56.98,95,100,4.09,RU,1659314821
321,kalinagar,28.6167,80.1,79.83,85,71,1.99,IN,1659314821
322,faanui,-16.4833,-151.75,78.64,71,15,24.58,PF,1659314822
323,tres lagoas,-20.7511,-51.6783,71.53,36,0,5.99,BR,1659314822
324,gravdal,68.1214,13.5031,53.96,93,100,8.86,NO,1659314822
325,tema,5.667,-0.0166,75.61,88,40,12.66,GH,1659314822
326,harper,4.375,-7.7169,75.04,80,100,12.73,LR,1659314823
327,qaqortoq,60.7167,-46.0333,45.7,94,100,4.47,GL,1659314627
328,eenhana,-17.4667,16.3333,51.57,34,0,5.57,NA,1659314823
329,owen sound,44.5672,-80.9435,77.38,72,1,1.01,CA,1659314823
330,codrington,-38.2667,141.9667,51.76,83,89,17.96,AU,1659314752
331,zilair,52.2332,57.4392,61.32,75,100,2.64,RU,1659314824
332,batagay,67.6333,134.6333,79.72,43,100,10.51,RU,1659314824
333,goulburn,-34.75,149.7167,48.54,75,54,17.05,AU,1659314722
334,ponta do sol,32.6667,-17.1,72.01,78,3,3.0,PT,1659314824
335,wenling,28.3669,121.36,86.7,72,100,2.98,CN,1659314825
336,synya,65.3718,58.0387,57.33,62,20,3.33,RU,1659314825
337,pussi,59.36,27.0497,61.09,70,100,4.23,EE,1659314825
338,namatanai,-3.6667,152.4333,84.42,70,44,11.14,PG,1659314825
339,buraydah,26.326,43.975,88.25,51,98,12.82,SA,1659314793
340,yuancheng,36.652,107.7896,74.08,67,4,13.71,CN,1659314826
341,gerash,27.6652,54.1371,77.14,67,100,2.93,IR,1659314826
342,mana,5.6592,-53.7767,77.95,86,99,5.79,GF,1659314826
343,vale da amoreira,39.0697,-7.6985,73.72,47,0,4.18,PT,1659314826
344,praya,14.9215,-23.5087,77.54,73,75,11.5,CV,1659314827
345,araouane,18.9048,-3.5265,91.83,35,58,10.07,ML,1659314827
346,bardiyah,31.7561,25.0865,77.14,90,0,14.92,LY,1659314827
347,broken hill,-31.95,141.4333,53.71,48,0,6.6,AU,1659314604
348,rocha,-34.4833,-54.3333,47.84,80,65,4.09,UY,1659314827
349,safford,32.834,-109.7076,94.12,31,0,0.0,US,1659314828
350,shakawe,-18.3667,21.85,56.01,26,0,6.13,BW,1659314828
351,pimenta bueno,-11.6725,-61.1936,76.23,39,0,0.43,BR,1659314828
352,saint george,37.1041,-113.5841,89.64,48,0,13.8,US,1659314792
353,teahupoo,-17.8333,-149.2667,78.76,68,82,24.11,PF,1659314828
354,padrauna,26.9025,83.9819,80.92,86,100,0.96,IN,1659314736
355,iwanai,42.9744,140.5089,73.72,97,100,2.35,JP,1659314829
356,yarmouth,41.7057,-70.2286,75.97,80,0,9.22,US,1659314829
357,moerai,-22.4333,-151.3333,73.26,64,100,19.51,PF,1659314829
358,miri,4.4148,114.0089,77.14,88,20,9.22,MY,1659314829
359,arawa,-6.2132,155.5367,87.6,62,99,5.88,PG,1659314830
360,mehamn,71.0357,27.8492,57.15,94,100,1.14,NO,1659314830
361,krasnyye baki,57.131,45.1599,59.09,75,100,4.65,RU,1659314830
362,iqaluit,63.7506,-68.5145,47.93,82,75,10.36,CA,1659314830
363,marawi,7.9986,124.2928,78.44,65,100,0.72,PH,1659314831
364,san luis,-33.295,-66.3356,54.07,40,81,10.25,AR,1659314823
365,lingyuan,41.24,119.4011,83.26,64,0,2.17,CN,1659314831
366,fortuna,40.5982,-124.1573,71.92,76,0,13.8,US,1659314831
367,longyearbyen,78.2186,15.6401,49.84,76,40,11.5,SJ,1659314832
368,horadiz,39.4488,47.3353,70.57,66,3,3.71,AZ,1659314832
369,olafsvik,64.8945,-23.7142,48.54,65,100,6.44,IS,1659314832
370,jacqueville,5.2052,-4.4146,75.52,81,100,16.37,CI,1659314832
371,peace river,56.2501,-117.286,75.51,56,75,13.8,CA,1659314833
372,orcopampa,-15.2661,-72.3417,47.05,33,32,4.16,PE,1659314833
373,morgan city,29.6994,-91.2068,84.0,75,9,5.73,US,1659314833
374,laguna,38.421,-121.4238,90.97,48,0,13.8,US,1659314833
375,kendari,-3.945,122.4989,78.06,89,98,2.08,ID,1659314834
376,constitucion,-35.3333,-72.4167,48.88,90,100,3.98,CL,1659314834
377,muros,42.7762,-9.0603,65.68,78,1,10.8,ES,1659314834
378,marienburg,54.0359,19.0266,55.89,94,0,3.94,PL,1659314834
379,port hedland,-20.3167,118.5667,71.65,43,37,6.91,AU,1659314835
380,shache,38.4167,77.2406,75.36,31,100,14.99,CN,1659314835
381,asfi,32.2994,-9.2372,75.63,79,51,15.93,MA,1659314835
382,iquique,-20.2208,-70.1431,59.04,77,70,0.65,CL,1659314835
383,aklavik,68.2191,-135.0107,67.21,44,68,4.0,CA,1659314836
384,imeni zhelyabova,58.9544,36.5956,52.05,88,100,2.71,RU,1659314836
385,taber,49.8167,-112.1518,95.2,21,2,5.75,CA,1659314836
386,lask,51.5906,19.1328,55.44,98,29,5.28,PL,1659314836
387,romans-sur-isere,45.0464,5.0562,75.97,56,0,5.48,FR,1659314837
388,vanavara,60.34,102.2797,68.5,79,17,2.77,RU,1659314837
389,mahon,39.8885,4.2658,73.96,53,0,5.75,ES,1659314837
390,bodden town,19.2833,-81.25,89.01,78,20,13.8,KY,1659314837
391,rio verde de mato grosso,-18.9181,-54.8442,74.97,33,0,3.6,BR,1659314838
392,mecca,21.4267,39.8261,88.59,24,100,4.0,SA,1659314838
393,istok,42.7808,20.4875,60.87,61,0,5.41,XK,1659314838
394,saint-francois,46.4154,3.9054,60.67,82,0,3.44,FR,1659314838
395,pimentel,-6.8367,-79.9342,61.99,86,18,13.2,PE,1659314839
396,etchojoa,26.9167,-109.6333,92.26,49,10,5.99,MX,1659314839
397,pangnirtung,66.1451,-65.7125,48.27,82,100,1.39,CA,1659314839
398,kyshtovka,56.555,76.6271,56.46,94,97,11.77,RU,1659314839
399,korla,41.7597,86.1469,78.3,40,30,14.67,CN,1659314840
400,camargo,27.6667,-105.1667,90.77,15,90,16.17,MX,1659314840
401,shenjiamen,29.9576,122.298,83.53,80,100,7.61,CN,1659314840
402,sechura,-5.5569,-80.8222,63.41,78,6,15.26,PE,1659314841
403,whitley bay,55.0397,-1.4471,58.06,91,20,1.14,GB,1659314841
404,otorohanga,-38.1833,175.2,59.32,48,63,5.73,NZ,1659314841
405,zvishavane,-20.3267,30.0665,55.74,31,3,2.1,ZW,1659314841
406,zapolyarnyy,69.4154,30.8136,52.88,95,84,7.27,RU,1659314842
407,beloha,-25.1667,45.05,63.84,93,2,5.03,MG,1659314842
408,vardo,70.3705,31.1107,49.98,100,100,2.3,NO,1659314842
409,satwas,22.5333,76.6833,75.56,90,63,4.9,IN,1659314842
410,magadan,59.5667,150.8,58.53,88,100,7.81,RU,1659314843
411,ust-uda,54.1742,103.0304,66.92,85,99,3.38,RU,1659314843
412,sabanalarga,10.6296,-74.9206,83.28,86,80,4.79,CO,1659314843
413,cam ranh,11.9214,109.1591,84.16,70,0,3.44,VN,1659314843
414,aroeiras,-7.5453,-35.7075,71.49,97,64,4.68,BR,1659314843
415,olinda,-8.0089,-34.8553,78.53,73,40,9.22,BR,1659314558
416,kawalu,-7.3817,108.2082,77.05,72,48,1.41,ID,1659314844
417,cascais,38.6979,-9.4215,76.35,58,0,8.01,PT,1659314844
418,doha,25.2867,51.5333,93.18,70,0,6.91,QA,1659314642
419,kissidougou,9.1848,-10.0999,68.81,99,100,5.32,GN,1659314844
420,denpasar,-8.65,115.2167,76.66,88,40,5.75,ID,1659314618
421,coahuayana,18.7333,-103.6833,83.73,74,55,4.0,MX,1659314845
422,hasaki,35.7333,140.8333,93.29,69,100,4.63,JP,1659314845
423,maroantsetra,-15.4333,49.7333,67.32,90,95,1.23,MG,1659314845
424,salalah,17.0151,54.0924,77.09,88,75,8.05,OM,1659314677
425,mbandaka,0.0487,18.2603,71.02,75,100,0.54,CD,1659314845
426,fort saint james,54.4333,-124.25,85.33,26,6,9.42,CA,1659314846
427,leshukonskoye,64.8989,45.7622,57.78,97,100,2.28,RU,1659314846
428,cabedelo,-6.9811,-34.8339,75.87,83,94,12.97,BR,1659314773
429,moron,-34.6534,-58.6198,56.95,88,0,3.89,AR,1659314846
430,wuda,39.4994,106.7117,80.37,57,19,19.77,CN,1659314846
431,saint-augustin,51.226,-58.6502,66.54,65,74,9.24,CA,1659314847
432,anupgarh,29.1911,73.2086,85.08,74,44,12.41,IN,1659314847
433,alofi,-19.0595,-169.9187,80.49,69,3,14.97,NU,1659314651
434,krasnoselkup,65.7,82.4667,48.11,64,0,23.94,RU,1659314847
435,kota kinabalu,5.9749,116.0724,78.78,83,20,7.0,MY,1659314848
436,faya,18.3851,42.4509,68.52,63,89,7.2,SA,1659314848
437,sur,22.5667,59.5289,85.14,68,96,8.3,OM,1659314848
438,abu dhabi,24.4667,54.3667,98.71,46,0,8.05,AE,1659314607
439,pokhara,28.2333,83.9833,72.72,93,100,0.49,NP,1659314848
440,kamaishi,39.2667,141.8833,78.91,81,100,4.81,JP,1659314849
441,foki,56.693,54.3499,60.71,89,90,3.06,RU,1659314849
442,pekan,3.4836,103.3996,75.31,88,100,4.29,MY,1659314849
443,kavaratti,10.5669,72.642,78.71,83,100,23.98,IN,1659314849
444,ostersund,63.1792,14.6357,59.45,88,100,5.75,SE,1659314850
445,asosa,10.0667,34.5333,59.25,95,100,2.19,ET,1659314725
446,shu,43.5983,73.7614,74.52,39,39,2.55,KZ,1659314850
447,zeya,53.75,127.2667,69.08,92,100,4.14,RU,1659314850
448,atar,20.5169,-13.0499,90.55,43,0,9.93,MR,1659314851
449,gogrial,8.5332,28.1004,69.96,95,57,4.32,SS,1659314851
450,evensk,61.95,159.2333,56.68,73,100,9.17,RU,1659314851
451,najran,17.4924,44.1277,84.85,65,82,14.05,SA,1659314851
452,lorengau,-2.0226,147.2712,85.41,68,99,11.79,PG,1659314852
453,sussex,41.1834,-74.6663,78.93,71,0,1.01,US,1659314697
454,junglinster,49.7072,6.2531,66.83,81,20,4.61,LU,1659314852
455,katsuura,35.1333,140.3,86.59,72,96,8.79,JP,1659314852
456,atbasar,51.8,68.3333,61.83,84,20,7.9,KZ,1659314852
457,toora-khem,52.4675,96.11,63.63,79,100,0.2,RU,1659314853
458,yar-sale,66.8333,70.8333,51.48,70,5,6.8,RU,1659314853
459,nicoya,10.1483,-85.452,77.58,81,11,5.03,CR,1659314853
460,porto santo,33.072,-16.3415,70.18,78,40,12.66,PT,1659314853
461,odweyne,9.4092,45.064,72.88,55,100,21.09,SO,1659314854
462,chapais,49.7834,-74.8492,65.98,76,21,3.74,CA,1659314854
463,alberton,46.8168,-64.0654,71.51,73,0,5.84,CA,1659314854
464,vila franca do campo,37.7167,-25.4333,70.21,85,9,4.65,PT,1659314854
465,skelleftea,64.7507,20.9528,57.56,100,100,2.3,SE,1659314855
466,mitu,1.1983,-70.1733,71.94,98,100,0.56,CO,1659314855
467,tilichiki,60.4667,166.1,56.53,63,19,7.2,RU,1659314855
468,poum,-20.2333,164.0167,73.26,72,96,12.06,NC,1659314855
469,pemba,-12.974,40.5178,68.7,88,20,4.61,MZ,1659314856
470,batemans bay,-35.7167,150.1833,58.1,46,2,12.24,AU,1659314856
471,batagay-alyta,67.8006,130.4114,70.99,53,100,11.95,RU,1659314856
472,saint-pierre,-21.3393,55.4781,67.68,63,0,8.05,RE,1659314854
473,tual,-5.6667,132.75,79.32,84,100,17.65,ID,1659314856
474,todos santos,23.45,-110.2167,89.04,76,73,4.94,MX,1659314857
475,pasni,25.2631,63.471,81.19,86,100,11.21,PK,1659314857
476,chahal,15.75,-89.5667,72.64,99,100,2.13,GT,1659314857
477,santiago del estero,-27.7951,-64.2615,63.99,27,0,5.46,AR,1659314857
478,coquimbo,-29.9533,-71.3436,55.13,94,40,6.91,CL,1659314858
479,yaan,7.3833,8.5667,71.24,97,100,8.55,NG,1659314858
480,aberystwyth,52.4155,-4.0829,52.72,79,100,2.59,GB,1659314858
481,cap malheureux,-19.9842,57.6142,68.47,76,0,10.0,MU,1659314858
482,norwood,42.1945,-71.1995,81.01,60,0,8.01,US,1659314860
483,rosario do sul,-30.2583,-54.9142,52.23,85,0,4.36,BR,1659314860
484,talaya,61.3833,152.75,58.03,66,99,14.34,RU,1659314860
485,haines junction,60.7522,-137.5108,64.35,52,100,9.22,CA,1659314861
486,takab,36.4009,47.1133,67.05,58,0,4.47,IR,1659314861
487,ambon,-3.6954,128.1814,82.54,78,40,6.91,ID,1659314861
488,saint helens,53.45,-2.7333,55.29,85,100,6.91,GB,1659314861
489,kopavogur,64.1123,-21.913,49.71,76,40,9.22,IS,1659314862
490,ketchikan,55.3422,-131.6461,64.87,88,100,4.61,US,1659314862
491,tateyama,34.9833,139.8667,84.83,75,84,8.37,JP,1659314862
492,lasa,46.6166,10.7002,65.28,88,0,4.32,IT,1659314863
493,korop,51.5664,32.9586,59.86,73,57,8.43,UA,1659314863
494,rio grande,-32.035,-52.0986,50.11,92,14,7.63,BR,1659314863
495,kintinku,-5.8833,35.2333,69.66,62,62,4.14,TZ,1659314863
496,kuryk,43.2,51.65,79.43,41,0,6.87,KZ,1659314864
497,manavgat,36.7867,31.4431,79.74,65,0,4.18,TR,1659314864
498,samarai,-10.6167,150.6667,81.0,78,77,11.27,PG,1659314864
499,balkhash,46.844,74.9804,68.88,62,80,9.69,KZ,1659314865
500,shubarshi,48.5872,57.1869,71.01,50,46,3.15,KZ,1659314865
501,buala,-8.145,159.5921,85.06,70,21,12.15,SB,1659314865
502,bhadasar,28.2833,74.3167,82.15,78,26,13.76,IN,1659314865
503,antigonish,45.6169,-61.9986,70.83,79,0,1.01,CA,1659314602
504,ahipara,-35.1667,173.1667,58.39,56,13,7.58,NZ,1659314866
505,maragogi,-9.0122,-35.2225,74.53,84,6,9.82,BR,1659314866
506,pak phanang,8.3511,100.202,80.62,82,100,8.68,TH,1659314866
507,machakos,-1.5167,37.2667,60.75,90,100,1.83,KE,1659314866
508,puerto leguizamo,-0.1934,-74.7819,72.48,95,52,2.62,CO,1659314867
509,angoche,-16.2325,39.9086,70.38,83,5,4.38,MZ,1659314867
510,albanel,48.8832,-72.4487,75.34,64,15,8.05,CA,1659314867
511,gambela,8.25,34.5833,69.28,94,100,1.5,ET,1659314868
512,nampula,-15.1165,39.2666,66.15,94,75,4.61,MZ,1659314868
513,ilulissat,69.2167,-51.1,59.02,38,59,16.11,GL,1659314654
514,winchester,51.0651,-1.3187,67.03,84,75,2.3,GB,1659314868
515,porto-vecchio,41.591,9.2795,76.53,88,0,3.44,FR,1659314731
516,sabang,5.8933,95.3214,82.31,74,98,15.3,ID,1659314869
517,ahtopol,42.1,27.95,72.18,73,2,8.57,BG,1659314869
518,inhambane,-23.865,35.3833,65.79,85,6,5.53,MZ,1659314869
519,panama city,8.9936,-79.5197,82.35,87,40,4.61,PA,1659314869
520,necochea,-38.5473,-58.7368,50.68,80,99,7.45,AR,1659314870
521,puruliya,23.3333,86.3667,83.93,70,87,4.29,IN,1659314870
522,kharitonovo,61.4009,47.4978,54.32,99,31,3.85,RU,1659314870
523,piacabucu,-10.4056,-36.4344,73.27,88,3,7.99,BR,1659314870
524,arrifes,37.7667,-25.7,68.25,88,75,3.44,PT,1659314871
525,toamasina,-18.1667,49.3833,66.2,94,75,4.61,MG,1659314871
526,petropavlovsk-kamchatskiy,53.0452,158.6483,59.59,63,75,2.24,RU,1659314871
527,songjianghe,42.1859,127.479,77.09,77,100,2.13,CN,1659314628
528,taoudenni,22.6783,-3.9836,94.95,27,77,10.87,ML,1659314871
529,antofagasta,-23.65,-70.4,56.48,85,68,5.57,CL,1659314872
530,corlu,41.1592,27.8,73.38,68,0,14.97,TR,1659314872
531,kurumkan,54.3,110.3,66.43,82,51,2.84,RU,1659314872
532,sitrah,26.1547,50.6206,93.36,68,0,8.05,BH,1659314873
533,miguel calmon,-11.4289,-40.595,66.18,84,9,5.97,BR,1659314873
534,fukue,32.6881,128.8419,82.76,89,75,18.41,JP,1659314873
535,champerico,14.3,-91.9167,81.14,87,100,9.75,GT,1659314873
536,tagusao,9.1924,117.8141,82.18,75,100,4.52,PH,1659314874
537,suhut,38.5311,30.5458,64.35,77,0,4.72,TR,1659314874
538,matagami,49.7502,-77.6328,68.11,83,75,3.44,CA,1659314874
539,maneromango,-7.1988,38.7848,64.06,98,25,1.7,TZ,1659314875
540,meadow lake,34.8014,-106.5436,84.4,41,99,7.92,US,1659314875
541,sawtell,-30.3833,153.1,62.62,63,72,10.36,AU,1659314875
542,seoul,37.5683,126.9778,81.97,86,75,9.22,KR,1659314369
543,amahai,-3.3333,128.9167,80.37,80,79,2.01,ID,1659314875
544,susanville,40.4163,-120.653,90.12,33,0,16.11,US,1659314728
545,kiama,-34.6833,150.8667,64.58,65,2,3.0,AU,1659314876
546,cukai,4.25,103.4167,75.15,83,100,4.14,MY,1659314876
547,butler,39.4501,-84.5666,75.11,78,0,6.91,US,1659314876
548,honningsvag,70.9821,25.9704,56.95,82,100,4.61,NO,1659314876
549,tripoli,32.8752,13.1875,81.3,70,0,8.61,LY,1659314877
550,santa maria,-29.6842,-53.8069,49.3,100,1,2.3,BR,1659314877
551,aragarcas,-15.8975,-52.2508,72.21,29,0,0.69,BR,1659314877
552,luderitz,-26.6481,15.1594,57.42,52,0,7.0,NA,1659314877
553,north bend,43.4065,-124.2243,70.92,91,20,10.36,US,1659314878
554,misratah,32.3754,15.0925,81.63,75,0,10.49,LY,1659314878
555,stokmarknes,68.5646,14.9108,53.58,87,100,0.0,NO,1659314878
556,sechelt,49.4664,-123.7694,88.12,47,2,3.15,CA,1659314878
